[
 {
  "slug": "courtside-amore",
  "name": "(Daet Racquet Club) Courtside Amore",
  "lat": 14.253962,
  "lng": 121.18632
 },
 {
  "slug": "24-7-pickle-mandaluyong",
  "name": "24/7 Pickle Mandaluyong",
  "lat": 17.516376,
  "lng": 121.992635
 },
 {
  "slug": "2916-pickleballers-guillermo-badminton-and-pickleball-court",
  "name": "2916 Pickleballers @ Guillermo Badminton & Pickleball Court (Bacarra)",
  "lat": 17.364389,
  "lng": 120.985396
 },
 {
  "slug": "ace-e-resort-pickleball",
  "name": "ACE & E Resort Pickleball",
  "lat": 16.50228,
  "lng": 121.229813
 },
 {
  "slug": "abra-high-school-gym",
  "name": "Abra High School Gym",
  "lat": 12.484543,
  "lng": 123.559979
 },
 {
  "slug": "acacia-smashers-pickleball-club",
  "name": "Acacia Smashers Pickleball Club",
  "lat": 12.996408,
  "lng": 120.63509
 },
 {
  "slug": "actifit-sports-center",
  "name": "Actifit Sports Center",
  "lat": 12.478748,
  "lng": 123.47869
 },
 {
  "slug": "activate-skypark-festival-mall-alabang-pickleball",
  "name": "Activate Skypark Festival Mall Alabang Pickleball",
  "lat": 14.417017,
  "lng": 120.97945
 },
 {
  "slug": "activate-sports-ph-lucena-lucena-city",
  "name": "Activate Sports PH Lucena",
  "lat": 14.231625,
  "lng": 121.547942
 },
 {
  "slug": "activate-sports-ph-one-ayala",
  "name": "Activate Sports PH One Ayala (Makati)",
  "lat": 16.769635,
  "lng": 120.434566
 },
 {
  "slug": "alabang-country-club",
  "name": "Alabang Country Club",
  "lat": 18.359699,
  "lng": 122.3231
 },
 {
  "slug": "albay-pickleball-club-emmalene-iimuro-tennis-club",
  "name": "Albay Pickleball Club @ Emmalene Iimuro Tennis Club",
  "lat": 18.377699,
  "lng": 122.3051
 },
 {
  "slug": "amadea-resort-and-pickleball",
  "name": "Amadea Resort and Pickleball",
  "lat": 16.03308,
  "lng": 120.586393
 },
 {
  "slug": "arcovia-pickleball-club",
  "name": "Arcovia Pickleball Club",
  "lat": 16.033996,
  "lng": 120.803675
 },
 {
  "slug": "asingan-paddlers-pickleball-club",
  "name": "Asingan Paddlers Pickleball Club",
  "lat": 15.464586,
  "lng": 120.692757
 },
 {
  "slug": "athlete-central",
  "name": "Athlete Central",
  "lat": 10.061788,
  "lng": 117.546779
 },
 {
  "slug": "athlete-central-ph",
  "name": "Athlete Central PH Cainta (Rizal's Biggest Pickleball Facility, 11 PB-capable courts)",
  "lat": 18.565781,
  "lng": 121.878839
 },
 {
  "slug": "ayala-heights-badminton-court",
  "name": "Ayala Heights Badminton Court",
  "lat": 14.649874,
  "lng": 120.980628
 },
 {
  "slug": "ayala-malls-30th-pickleball-2nd-floor",
  "name": "Ayala Malls 30th (Pasig) Pickleball - 2nd Floor",
  "lat": 15.569486,
  "lng": 120.916679
 },
 {
  "slug": "bf-multi-purpose-court",
  "name": "BF Multi-purpose Court",
  "lat": 14.329299,
  "lng": 121.407803
 },
 {
  "slug": "bacnotan-pickleball-club-first-ever-pb-court-in-bacnotan",
  "name": "Bacnotan Pickleball Club (BPC) - First Ever PB Court in Bacnotan",
  "lat": 17.39399,
  "lng": 120.747105
 },
 {
  "slug": "bagong-bayan-picklers",
  "name": "Bagong Bayan Picklers",
  "lat": 17.008459,
  "lng": 120.996654
 },
 {
  "slug": "balanga-paddle-park",
  "name": "Balanga Paddle Park",
  "lat": 16.067593,
  "lng": 120.49772
 },
 {
  "slug": "balayan-bay-pickleball-club",
  "name": "Balayan Bay Pickleball Club",
  "lat": 18.029447,
  "lng": 122.304361
 },
 {
  "slug": "baler-ace-pickleball-court",
  "name": "Baler Ace Pickleball Court",
  "lat": 18.294147,
  "lng": 120.798492
 },
 {
  "slug": "banay-banay-pickleball",
  "name": "Banay-Banay Pickleball Lipa",
  "lat": 17.466259,
  "lng": 120.591441
 },
 {
  "slug": "batangas-city-pickleball-arena",
  "name": "Batangas City Pickleball Arena",
  "lat": 13.155162,
  "lng": 123.495046
 },
 {
  "slug": "batangas-pickleball-arena",
  "name": "Batangas Pickleball Arena",
  "lat": 14.219959,
  "lng": 121.130296
 },
 {
  "slug": "bauan-community-pickleball-hub",
  "name": "Bauan Community Pickleball Hub",
  "lat": 14.757426,
  "lng": 120.912065
 },
 {
  "slug": "binangonan-pickleball-grounds",
  "name": "Binangonan Pickleball Grounds",
  "lat": 14.314891,
  "lng": 121.32534
 },
 {
  "slug": "bi-an-dinkers-hub",
  "name": "Biñan Dinkers Hub",
  "lat": 14.294829,
  "lng": 121.086917
 },
 {
  "slug": "bi-an-paddle-park",
  "name": "Biñan Paddle Park",
  "lat": 16.928298,
  "lng": 121.009486
 },
 {
  "slug": "blue-ridge-pickleball-club",
  "name": "Blue Ridge Pickleball Club",
  "lat": 14.424471,
  "lng": 120.595673
 },
 {
  "slug": "bounce-at-parqal-mall-pickleball",
  "name": "Bounce at Parqal Mall Pickleball Parañaque",
  "lat": 17.172603,
  "lng": 121.552439
 },
 {
  "slug": "bravo-pickleball-vista-mall-bataan-balanga",
  "name": "Bravo Pickleball Vista Mall Bataan",
  "lat": 17.442501,
  "lng": 120.959841
 },
 {
  "slug": "bulacan-sports-complex",
  "name": "Bulacan Sports Complex",
  "lat": 13.706916,
  "lng": 122.860952
 },
 {
  "slug": "ccf-center-pickleball",
  "name": "CCF Center Pickleball",
  "lat": 16.06228,
  "lng": 121.876779
 },
 {
  "slug": "chops-pickleball-hub-san-jose-occidental-mindoro",
  "name": "CHOPS Pickleball Hub San Jose Occidental Mindoro",
  "lat": 16.680197,
  "lng": 120.91659
 },
 {
  "slug": "calaca-dinkers-court",
  "name": "Calaca Dinkers Court",
  "lat": 14.215651,
  "lng": 121.152461
 },
 {
  "slug": "calamba-court-central",
  "name": "Calamba Court Central",
  "lat": 13.555525,
  "lng": 122.833888
 },
 {
  "slug": "camsur-pickleball-club",
  "name": "CamSur Pickleball Club",
  "lat": 20.611339,
  "lng": 121.842364
 },
 {
  "slug": "camella-covered-court-pickleball",
  "name": "Camella Covered Court Pickleball",
  "lat": 14.987959,
  "lng": 120.906624
 },
 {
  "slug": "camella-nueva-ecija-covered-court-pickleball",
  "name": "Camella Nueva Ecija Covered Court Pickleball",
  "lat": 17.600363,
  "lng": 120.553441
 },
 {
  "slug": "camp-ola-pickleball-courts-legazpi",
  "name": "Camp Ola Pickleball Courts Legazpi",
  "lat": 15.990851,
  "lng": 120.051335
 },
 {
  "slug": "casamor-la-union-bacnotan",
  "name": "CasaMor La Union Bacnotan (Private Stay-and-Play Airbnb with Pickleball Court)",
  "lat": 12.701666,
  "lng": 123.988524
 },
 {
  "slug": "celebrity-sports-club",
  "name": "Celebrity Sports Club",
  "lat": 17.057928,
  "lng": 121.554877
 },
 {
  "slug": "citywalk-badminton-sports-center",
  "name": "Citywalk Badminton Sports Center",
  "lat": 12.468538,
  "lng": 122.144316
 },
 {
  "slug": "conquest-sports",
  "name": "Conquest Sports",
  "lat": 16.789919,
  "lng": 120.371582
 },
 {
  "slug": "corinthian-gardens-pickleball-club",
  "name": "Corinthian Gardens Pickleball Club",
  "lat": 17.66179,
  "lng": 120.565967
 },
 {
  "slug": "cristy-hernandez-activity-center",
  "name": "Cristy Hernandez Activity Center",
  "lat": 14.315293,
  "lng": 120.867041
 },
 {
  "slug": "cuenca-highland-pickleball",
  "name": "Cuenca Highland Pickleball",
  "lat": 17.208603,
  "lng": 121.552439
 },
 {
  "slug": "dasmarinas-pickleball",
  "name": "Dasmarinas Pickleball",
  "lat": 17.293825,
  "lng": 122.319391
 },
 {
  "slug": "dasmari-as-smash-pickleball-club",
  "name": "Dasmariñas Smash Pickleball Club",
  "lat": 13.665953,
  "lng": 121.27973
 },
 {
  "slug": "deca-mall-tondo-pickleball",
  "name": "Deca Mall Tondo Pickleball",
  "lat": 17.246632,
  "lng": 121.832264
 },
 {
  "slug": "dink-drive-pickleball",
  "name": "Dink & Drive Pickleball",
  "lat": 17.423672,
  "lng": 122.091993
 },
 {
  "slug": "dink-and-shot",
  "name": "Dink and Shot",
  "lat": 17.521428,
  "lng": 121.384319
 },
 {
  "slug": "divine-light-academy-las-pinas",
  "name": "Divine Light Academy Las Piñas",
  "lat": 17.303538,
  "lng": 121.816295
 },
 {
  "slug": "dona-juana-subdivision-pickleball",
  "name": "Doña Juana Subdivision Pickleball",
  "lat": 12.401179,
  "lng": 123.579697
 },
 {
  "slug": "dragonsmash",
  "name": "DragonSmash",
  "lat": 17.528017,
  "lng": 120.817401
 },
 {
  "slug": "esj-pickleball-court",
  "name": "ESJ Pickleball Court",
  "lat": 15.196124,
  "lng": 120.600842
 },
 {
  "slug": "fairview-pickleball-club",
  "name": "Fairview Pickleball Club",
  "lat": 17.576274,
  "lng": 121.308048
 },
 {
  "slug": "fairview-pickleball-club-fairview-quezon-city-2",
  "name": "Fairview Pickleball Club",
  "lat": 17.534015,
  "lng": 120.674274
 },
 {
  "slug": "fairview-terraces-pickleball",
  "name": "Fairview Terraces Pickleball",
  "lat": 13.815732,
  "lng": 124.289619
 },
 {
  "slug": "filinvest-east-homes-pickleball-courts",
  "name": "Filinvest East Homes Pickleball Courts",
  "lat": 15.955056,
  "lng": 121.15378
 },
 {
  "slug": "fitness-hub",
  "name": "Fitness Hub",
  "lat": 16.158506,
  "lng": 121.077108
 },
 {
  "slug": "five-s-pickleball-general-mamerto-natividad",
  "name": "Five-S Pickleball",
  "lat": 13.66727,
  "lng": 122.703089
 },
 {
  "slug": "flair-pickleball-club",
  "name": "Flair Pickleball Club",
  "lat": 13.085431,
  "lng": 123.623728
 },
 {
  "slug": "gpark-playgrounds",
  "name": "GPARK Playgrounds",
  "lat": 20.41227,
  "lng": 121.961244
 },
 {
  "slug": "gapan-pickle-courts",
  "name": "Gapan Pickle Courts",
  "lat": 15.561447,
  "lng": 120.918492
 },
 {
  "slug": "gapan-pickleball-pavilion",
  "name": "Gapan Pickleball Pavilion",
  "lat": 16.441777,
  "lng": 120.922543
 },
 {
  "slug": "goldentop-sports-center-pandacan",
  "name": "Goldentop Sports Center Pandacan Manila",
  "lat": 13.29647,
  "lng": 120.561768
 },
 {
  "slug": "green-kitchen-pickleball",
  "name": "Green Kitchen Pickleball",
  "lat": 14.614996,
  "lng": 121.072299
 },
 {
  "slug": "greenland-village-pickleball",
  "name": "Greenland Village Pickleball",
  "lat": 18.658901,
  "lng": 122.304978
 },
 {
  "slug": "hemady-sports-plaza",
  "name": "Hemady Sports Plaza (Kyusi Pickleball Club home)",
  "lat": 13.884002,
  "lng": 121.938419
 },
 {
  "slug": "hideout-pickleball-court",
  "name": "Hideout Pickleball Court",
  "lat": 12.30861,
  "lng": 122.144053
 },
 {
  "slug": "home-court-pickleball",
  "name": "Home Court Pickleball",
  "lat": 10.253497,
  "lng": 118.623516
 },
 {
  "slug": "ibaan-town-pickleball-court",
  "name": "Ibaan Town Pickleball Court",
  "lat": 15.908231,
  "lng": 120.980587
 },
 {
  "slug": "jcas-malolos",
  "name": "JCAS Malolos",
  "lat": 15.513437,
  "lng": 121.236029
 },
 {
  "slug": "john-hay-sports-pavilion",
  "name": "John Hay Sports Pavilion (Camp John Hay Pickleball)",
  "lat": 17.558486,
  "lng": 121.48534
 },
 {
  "slug": "kai-multipurpose-hall",
  "name": "KAI Multipurpose Hall",
  "lat": 13.254965,
  "lng": 123.756847
 },
 {
  "slug": "kalamandarin-pickleball-court",
  "name": "Kalamandarin Pickleball Court",
  "lat": 13.212058,
  "lng": 123.546117
 },
 {
  "slug": "kerry-sports-manila-pickleball",
  "name": "Kerry Sports Manila Pickleball (Shangri-La at the Fort BGC)",
  "lat": 14.289345,
  "lng": 121.252714
 },
 {
  "slug": "kingsville-hills-pickleball-club",
  "name": "Kingsville Hills Pickleball Club",
  "lat": 12.341392,
  "lng": 123.289418
 },
 {
  "slug": "lds-pickleball-valenzuela",
  "name": "LDS Pickleball Valenzuela",
  "lat": 13.968187,
  "lng": 122.792726
 },
 {
  "slug": "las-pi-as-smash-pickleball-club",
  "name": "Las Piñas Smash Pickleball Club",
  "lat": 17.672839,
  "lng": 120.739004
 },
 {
  "slug": "lemery-rally-pickleball-center",
  "name": "Lemery Rally Pickleball Center",
  "lat": 16.030172,
  "lng": 120.267881
 },
 {
  "slug": "lipa-pickleball-arena",
  "name": "Lipa Pickleball Arena",
  "lat": 16.890227,
  "lng": 121.832948
 },
 {
  "slug": "lipa-smash-pickleball-club",
  "name": "Lipa Smash Pickleball Club",
  "lat": 14.241519,
  "lng": 121.770414
 },
 {
  "slug": "lumiere-pickleball-club",
  "name": "Lumiere Pickleball Club",
  "lat": 17.356771,
  "lng": 121.039258
 },
 {
  "slug": "magallanes-village-association",
  "name": "Magallanes Village Association",
  "lat": 15.631261,
  "lng": 120.48783
 },
 {
  "slug": "makati-pickleball-club",
  "name": "Makati Pickleball Club",
  "lat": 14.23504,
  "lng": 121.360387
 },
 {
  "slug": "makati-sports-club",
  "name": "Makati Sports Club",
  "lat": 12.508729,
  "lng": 123.344341
 },
 {
  "slug": "malamig-barangay-hall",
  "name": "Malamig Barangay Hall",
  "lat": 13.122108,
  "lng": 123.384576
 },
 {
  "slug": "malvar-sports-pickleball-court",
  "name": "Malvar Sports Pickleball Court",
  "lat": 14.101636,
  "lng": 122.025089
 },
 {
  "slug": "mandaluyong-ace-pickleball-court",
  "name": "Mandaluyong Ace Pickleball Court",
  "lat": 13.236631,
  "lng": 120.717826
 },
 {
  "slug": "manila-pickleball-arena",
  "name": "Manila Pickleball Arena",
  "lat": 11.923039,
  "lng": 123.686217
 },
 {
  "slug": "manila-rally-pickleball-center",
  "name": "Manila Rally Pickleball Center",
  "lat": 17.563878,
  "lng": 121.302413
 },
 {
  "slug": "marikina-pickleballers",
  "name": "Marikina Pickleballers",
  "lat": 17.597753,
  "lng": 120.781113
 },
 {
  "slug": "market-market-pickleball-club",
  "name": "Market! Market! Pickleball Club",
  "lat": 14.739426,
  "lng": 120.930065
 },
 {
  "slug": "marquee-place-sports-zone",
  "name": "Marquee Place Sports Zone",
  "lat": 12.898431,
  "lng": 124.052784
 },
 {
  "slug": "masey-pickleball-boracay-malay",
  "name": "Masey Pickleball Boracay",
  "lat": 16.496311,
  "lng": 120.590757
 },
 {
  "slug": "meadowood-executive-village-pickleball-club",
  "name": "Meadowood Executive Village Pickleball Club",
  "lat": 16.921427,
  "lng": 122.064647
 },
 {
  "slug": "merville-covered-court",
  "name": "Merville Covered Court",
  "lat": 16.726914,
  "lng": 121.417422
 },
 {
  "slug": "metro-south-pickleball-club",
  "name": "Metro South Pickleball Club",
  "lat": 15.836222,
  "lng": 121.264687
 },
 {
  "slug": "metro-vigan-pickleball-club",
  "name": "Metro Vigan Pickleball Club (Pantay Daya Covered Court)",
  "lat": 16.005119,
  "lng": 120.708736
 },
 {
  "slug": "meycauayan-sports-complex-pickleball-not-verified",
  "name": "Meycauayan Sports Complex (Pickleball — NOT VERIFIED)",
  "lat": 20.470788,
  "lng": 121.874051
 },
 {
  "slug": "mira-nila-clubhouse-pickleball",
  "name": "Mira Nila Clubhouse Pickleball (The Pickling Zone home court)",
  "lat": 17.432201,
  "lng": 122.126335
 },
 {
  "slug": "mission-hills-pickleball-club",
  "name": "Mission Hills Pickleball Club",
  "lat": 13.251488,
  "lng": 121.407623
 },
 {
  "slug": "montecourt-merville",
  "name": "Montecourt Merville",
  "lat": 13.754946,
  "lng": 121.229399
 },
 {
  "slug": "nspc-pickleball-courts",
  "name": "NSPC - Pickleball Courts",
  "lat": 17.589809,
  "lng": 120.687532
 },
 {
  "slug": "narra-pickle-court",
  "name": "Narra Pickle Court (San Jose City)",
  "lat": 16.964298,
  "lng": 121.009486
 },
 {
  "slug": "nasugbu-beach-pickleball",
  "name": "Nasugbu Beach Pickleball",
  "lat": 16.783144,
  "lng": 120.435731
 },
 {
  "slug": "nasugbu-rally-pickleball-center",
  "name": "Nasugbu Rally Pickleball Center",
  "lat": 12.445049,
  "lng": 123.734513
 },
 {
  "slug": "navotas-pickle-courts",
  "name": "Navotas Pickle Courts",
  "lat": 17.842608,
  "lng": 120.580536
 },
 {
  "slug": "nawa-wellness-pickleball",
  "name": "Nawa Wellness Pickleball (Eco Luxury Resort)",
  "lat": 12.263083,
  "lng": 121.99411
 },
 {
  "slug": "neopolitan-brittany-pickleball-courts",
  "name": "Neopolitan Brittany Pickleball Courts",
  "lat": 14.740776,
  "lng": 121.052064
 },
 {
  "slug": "new-st-francis-pickleball-club",
  "name": "New St Francis Pickleball Club",
  "lat": 14.29995,
  "lng": 121.06672
 },
 {
  "slug": "new-st-francis-village",
  "name": "New St Francis Village",
  "lat": 14.701086,
  "lng": 121.076832
 },
 {
  "slug": "north-south-pickleball-club",
  "name": "North-South Pickleball Club",
  "lat": 17.968856,
  "lng": 121.796119
 },
 {
  "slug": "oh-pickleball-court",
  "name": "OH! Pickleball Court",
  "lat": 15.529143,
  "lng": 120.899473
 },
 {
  "slug": "olongapo-smash-pickleball-club",
  "name": "Olongapo Smash Pickleball Club",
  "lat": 18.285267,
  "lng": 120.8568
 },
 {
  "slug": "one-serendra-pickleball-club",
  "name": "One Serendra Pickleball Club",
  "lat": 13.736946,
  "lng": 121.211399
 },
 {
  "slug": "pal-sports-center",
  "name": "PAL Sports Center",
  "lat": 15.300095,
  "lng": 120.661174
 },
 {
  "slug": "pickleball-elites-sports-center",
  "name": "PICKLEBALL ELITES SPORTS CENTER",
  "lat": 15.148299,
  "lng": 120.842862
 },
 {
  "slug": "paddle-and-play-pickleball",
  "name": "Paddle & Play Pickleball (Balayan)",
  "lat": 13.987261,
  "lng": 124.267709
 },
 {
  "slug": "palisade-pickleball-club",
  "name": "Palisade Pickleball Club",
  "lat": 14.669283,
  "lng": 121.058439
 },
 {
  "slug": "palms-country-club",
  "name": "Palms Country Club",
  "lat": 14.179958,
  "lng": 120.983762
 },
 {
  "slug": "paradiso-verde-sport-center",
  "name": "Paradiso Verde Sport Center (Labo)",
  "lat": 14.736444,
  "lng": 122.326732
 },
 {
  "slug": "philippine-baptist-theological-seminary-pickleball-baguio",
  "name": "Philippine Baptist Theological Seminary (PBTS) Pickleball Baguio",
  "lat": 15.053664,
  "lng": 121.115497
 },
 {
  "slug": "pickle-play",
  "name": "Pickle Play",
  "lat": 17.273668,
  "lng": 122.15689
 },
 {
  "slug": "pickleball-camp-timberland-san-mateo",
  "name": "Pickleball Camp Timberland",
  "lat": 15.23393,
  "lng": 120.554085
 },
 {
  "slug": "pickleball-central-ph-pcph-pampanga",
  "name": "Pickleball Central PH (PCPH Pampanga)",
  "lat": 10.257923,
  "lng": 119.237932
 },
 {
  "slug": "pickleball-east-dinkers-club-pedci",
  "name": "Pickleball East Dinkers Club (PEDCI)",
  "lat": 14.370291,
  "lng": 121.384371
 },
 {
  "slug": "pickleball-hq-binan",
  "name": "Pickleball HQ Biñan",
  "lat": 14.499246,
  "lng": 121.034559
 },
 {
  "slug": "pickleball-hub-tiendesitas",
  "name": "Pickleball Hub @ Tiendesitas",
  "lat": 18.155407,
  "lng": 120.705575
 },
 {
  "slug": "pickleball-junction",
  "name": "Pickleball Junction",
  "lat": 12.989319,
  "lng": 120.508121
 },
 {
  "slug": "pickleball-mania-montalban",
  "name": "Pickleball Mania Montalban",
  "lat": 15.011488,
  "lng": 120.185234
 },
 {
  "slug": "pickleball-r-court-naga",
  "name": "Pickleball R'Court Naga (Robinsons Naga)",
  "lat": 14.550338,
  "lng": 121.467426
 },
 {
  "slug": "picklehaus-marikina",
  "name": "Picklehaus Marikina",
  "lat": 17.89282,
  "lng": 121.793269
 },
 {
  "slug": "pickler-s-lounge-at-ayala-malls-cloverleaf",
  "name": "Pickler's Lounge at Ayala Malls Cloverleaf",
  "lat": 15.503303,
  "lng": 120.925509
 },
 {
  "slug": "pico-de-loro-beach-and-country-club-pickleball",
  "name": "Pico de Loro Beach & Country Club Pickleball",
  "lat": 16.107091,
  "lng": 120.384828
 },
 {
  "slug": "picolandia-pickleball-court-daraga",
  "name": "Picolandia Pickleball Court",
  "lat": 12.640003,
  "lng": 122.232259
 },
 {
  "slug": "playhouse-pickle",
  "name": "Playhouse Pickle",
  "lat": 14.376858,
  "lng": 120.816883
 },
 {
  "slug": "proving-grounds-sports-center",
  "name": "Proving Grounds Sports Center",
  "lat": 17.346389,
  "lng": 120.967396
 },
 {
  "slug": "qmax-play-hauz-pickleball-billiards",
  "name": "QMAX Play Hauz Pickleball / Billiards",
  "lat": 17.618363,
  "lng": 120.571441
 },
 {
  "slug": "quezon-city-paddle-park",
  "name": "Quezon City Paddle Park",
  "lat": 14.497035,
  "lng": 121.104829
 },
 {
  "slug": "racket-yard",
  "name": "Racket Yard",
  "lat": 18.395699,
  "lng": 122.3231
 },
 {
  "slug": "reina-regente-tennis-club-tondo-pickleball",
  "name": "Reina Regente Tennis Club - Tondo Pickleball",
  "lat": 16.217429,
  "lng": 119.959634
 },
 {
  "slug": "revel-grove-santa-rosa",
  "name": "Revel Grove Santa Rosa",
  "lat": 14.723796,
  "lng": 121.183559
 },
 {
  "slug": "richmond-angono-tennis-court",
  "name": "Richmond Angono Tennis Court (Angono Pickleball Club / APC)",
  "lat": 18.49465,
  "lng": 120.711713
 },
 {
  "slug": "robinsons-place-palawan-pickleball",
  "name": "Robinsons Place Palawan Pickleball",
  "lat": 15.824411,
  "lng": 120.045111
 },
 {
  "slug": "rockwell-club-amorsolo-square",
  "name": "Rockwell Club, Amorsolo Square",
  "lat": 16.54281,
  "lng": 120.36628
 },
 {
  "slug": "rodriguez-rizal-pickleball-club-rrpc",
  "name": "Rodriguez Rizal Pickleball Club RRPC (Congress Ville Covered Court)",
  "lat": 13.323022,
  "lng": 123.83709
 },
 {
  "slug": "rosario-5-6-covered-court-pickleball",
  "name": "Rosario 5&6 Covered Court Pickleball",
  "lat": 14.873795,
  "lng": 121.733276
 },
 {
  "slug": "rosario-pickle-grounds",
  "name": "Rosario Pickle Grounds",
  "lat": 14.452681,
  "lng": 120.969496
 },
 {
  "slug": "sm-center-antipolo-downtown",
  "name": "SM Center Antipolo Downtown",
  "lat": 14.289962,
  "lng": 121.18632
 },
 {
  "slug": "sm-city-baguio-pickleball",
  "name": "SM City Baguio Pickleball",
  "lat": 17.275825,
  "lng": 122.301391
 },
 {
  "slug": "sm-city-baliwag-pickleball",
  "name": "SM City Baliwag Pickleball",
  "lat": 14.986158,
  "lng": 120.676202
 },
 {
  "slug": "sm-city-cabanatuan-pickleball",
  "name": "SM City Cabanatuan Pickleball",
  "lat": 12.470927,
  "lng": 123.342137
 },
 {
  "slug": "sm-mall-of-asia-pickleball-moa-music-hall-activity-center",
  "name": "SM Mall of Asia Pickleball (MOA Music Hall / Activity Center)",
  "lat": 15.047488,
  "lng": 120.185234
 },
 {
  "slug": "smash-point-pickleball-yard",
  "name": "SMASH POINT Pickleball Yard Magsaysay",
  "lat": 12.439959,
  "lng": 121.98938
 },
 {
  "slug": "sampaloc-tanay-pickleball-club-barangay-gym",
  "name": "Sampaloc Tanay Pickleball Club (STPC) - Barangay Gym",
  "lat": 17.414201,
  "lng": 122.144335
 },
 {
  "slug": "san-jose-pickleball-pavilion",
  "name": "San Jose Pickleball Pavilion",
  "lat": 17.57752,
  "lng": 121.353994
 },
 {
  "slug": "san-jose-del-monte-court-central",
  "name": "San Jose del Monte Court Central",
  "lat": 13.27847,
  "lng": 120.543768
 },
 {
  "slug": "san-jose-del-monte-dinkers-hub",
  "name": "San Jose del Monte Dinkers Hub",
  "lat": 13.964706,
  "lng": 122.663163
 },
 {
  "slug": "san-juan-coastline-pickle-courts",
  "name": "San Juan Coastline Pickle Courts",
  "lat": 13.738278,
  "lng": 122.964196
 },
 {
  "slug": "san-juan-pickleball-pavilion",
  "name": "San Juan Pickleball Pavilion",
  "lat": 13.688916,
  "lng": 122.842952
 },
 {
  "slug": "san-pedro-pickleball-club-the-garage",
  "name": "San Pedro Pickleball Club (The Garage)",
  "lat": 13.648817,
  "lng": 121.234319
 },
 {
  "slug": "santa-maria-picklers",
  "name": "Santa Maria Picklers (Pioneer Pickleball Court)",
  "lat": 13.55959,
  "lng": 122.876969
 },
 {
  "slug": "santo-tomas-paddle-park",
  "name": "Santo Tomas Paddle Park",
  "lat": 17.730034,
  "lng": 121.085905
 },
 {
  "slug": "seha-pickleball-court",
  "name": "Seha Pickleball Court",
  "lat": 14.461035,
  "lng": 121.104829
 },
 {
  "slug": "sequoia-pickleball-club",
  "name": "Sequoia Pickleball Club",
  "lat": 17.135323,
  "lng": 121.850314
 },
 {
  "slug": "smash-cab-badminton-and-fitness",
  "name": "Smash Cab Badminton and Fitness",
  "lat": 13.0631,
  "lng": 124.001986
 },
 {
  "slug": "smash-and-brew-pickleball-club",
  "name": "Smash and Brew Pickleball Club",
  "lat": 17.559149,
  "lng": 121.740117
 },
 {
  "slug": "solaire-resort-north-outdoor-fitness-deck-pickleball",
  "name": "Solaire Resort North Outdoor Fitness Deck Pickleball",
  "lat": 12.916431,
  "lng": 124.034784
 },
 {
  "slug": "solaire-sports-club-pickleball",
  "name": "Solaire Sports Club Pickleball (Entertainment City Parañaque)",
  "lat": 12.678887,
  "lng": 124.066128
 },
 {
  "slug": "soldiers-hills-2-covered-courts",
  "name": "Soldiers Hills 2 Covered Courts",
  "lat": 16.202261,
  "lng": 120.325935
 },
 {
  "slug": "sorsogon-pickleball-arena",
  "name": "Sorsogon Pickleball Arena (The Dink Zone)",
  "lat": 17.858574,
  "lng": 121.103596
 },
 {
  "slug": "south-city-homes-recreation-center-schrc-pickleball",
  "name": "South City Homes Recreation Center (SCHRC) Pickleball",
  "lat": 13.603361,
  "lng": 124.303706
 },
 {
  "slug": "southridge-pickleball-club",
  "name": "Southridge Pickleball Club",
  "lat": 15.264607,
  "lng": 120.622672
 },
 {
  "slug": "subic-bay-yacht-club-pickleball",
  "name": "Subic Bay Yacht Club Pickleball",
  "lat": 16.993984,
  "lng": 121.492994
 },
 {
  "slug": "suburbia-east-tennis-court",
  "name": "Suburbia East Tennis Court",
  "lat": 17.824608,
  "lng": 120.598536
 },
 {
  "slug": "sun-valley-estates-badminton-courts",
  "name": "Sun Valley Estates Badminton Courts",
  "lat": 13.852025,
  "lng": 123.10575
 },
 {
  "slug": "sunny-sideout-pickleball-court",
  "name": "Sunny Sideout - Pickleball Court",
  "lat": 14.40065,
  "lng": 121.24754
 },
 {
  "slug": "sylvia-bf-homes",
  "name": "Sylvia BF Homes",
  "lat": 18.430847,
  "lng": 120.800635
 },
 {
  "slug": "tg-residence-pickleball-stay-and-play",
  "name": "TG Residence Pickleball (Stay and Play)",
  "lat": 14.782481,
  "lng": 121.204917
 },
 {
  "slug": "taal-heritage-pickleball-club",
  "name": "Taal Heritage Pickleball Club",
  "lat": 14.271962,
  "lng": 121.20432
 },
 {
  "slug": "taguig-pickleball-grounds",
  "name": "Taguig Pickleball Grounds",
  "lat": 13.292282,
  "lng": 123.778053
 },
 {
  "slug": "tanauan-pickle-courts",
  "name": "Tanauan Pickle Courts",
  "lat": 16.643164,
  "lng": 120.953902
 },
 {
  "slug": "tarlac-city-pickleball-arena",
  "name": "Tarlac City Pickleball Arena",
  "lat": 15.776557,
  "lng": 120.018047
 },
 {
  "slug": "tarlac-recreational-park-pickleball",
  "name": "Tarlac Recreational Park Pickleball",
  "lat": 16.005436,
  "lng": 121.100394
 },
 {
  "slug": "taytay-pickle-courts",
  "name": "Taytay Pickle Courts",
  "lat": 15.482586,
  "lng": 120.710757
 },
 {
  "slug": "taytay-sports-center-pickleball-taytay",
  "name": "Taytay Sports Center Pickleball",
  "lat": 15.122164,
  "lng": 120.779467
 },
 {
  "slug": "the-3rd-shot-homecourt",
  "name": "The 3rd Shot Homecourt",
  "lat": 17.191115,
  "lng": 121.925469
 },
 {
  "slug": "the-court-by-balara",
  "name": "The Court by Balara (24-Hour Pickleball Quezon City)",
  "lat": 15.888434,
  "lng": 119.9838
 },
 {
  "slug": "the-dink-lab",
  "name": "The Dink Lab",
  "lat": 14.434796,
  "lng": 120.902025
 },
 {
  "slug": "the-garden-pickleball-series",
  "name": "The Garden Pickleball Series Makati (Make It Makati Car-Free Sundays)",
  "lat": 16.007671,
  "lng": 120.152301
 },
 {
  "slug": "the-mills-country-club-pickleball",
  "name": "The Mills Country Club Pickleball",
  "lat": 14.186712,
  "lng": 121.352892
 },
 {
  "slug": "the-playground",
  "name": "The PLAYGROUND Bayambang (Bayambang Pickleball League)",
  "lat": 15.389166,
  "lng": 119.994486
 },
 {
  "slug": "the-pickle-bloc",
  "name": "The Pickle Bloc",
  "lat": 17.664047,
  "lng": 121.783164
 },
 {
  "slug": "the-pickle-spot-makati",
  "name": "The Pickle Spot Makati",
  "lat": 15.015702,
  "lng": 120.465789
 },
 {
  "slug": "the-pickle-yard-dasmarinas",
  "name": "The Pickle Yard Dasmariñas",
  "lat": 14.722776,
  "lng": 121.034064
 },
 {
  "slug": "the-pickle-yard",
  "name": "The Pickle-Yard",
  "lat": 17.49282,
  "lng": 121.577539
 },
 {
  "slug": "the-pickleground-ph",
  "name": "The PickleGround PH",
  "lat": 14.452457,
  "lng": 120.527235
 },
 {
  "slug": "the-pickleball-club-ayala-malls-manila-bay",
  "name": "The Pickleball Club - Ayala Malls Manila Bay",
  "lat": 14.259519,
  "lng": 121.752414
 },
 {
  "slug": "the-pickleball-club-nomo",
  "name": "The Pickleball Club - NOMO",
  "lat": 17.819816,
  "lng": 120.766528
 },
 {
  "slug": "the-smash-city-valenzuela-s-premier-pickleball-centre",
  "name": "The Smash City (Valenzuela's Premier Pickleball Centre)",
  "lat": 14.893011,
  "lng": 120.811437
 },
 {
  "slug": "the-upper-deck-sports-center",
  "name": "The Upper Deck Sports Center",
  "lat": 18.156019,
  "lng": 122.133015
 },
 {
  "slug": "tru-grit-pickleball-court",
  "name": "Tru Grit Pickleball Court",
  "lat": 13.284337,
  "lng": 121.177139
 },
 {
  "slug": "twinville-civic-center",
  "name": "Twinville Civic Center",
  "lat": 12.241596,
  "lng": 122.122496
 },
 {
  "slug": "upap",
  "name": "UPAP",
  "lat": 17.441672,
  "lng": 122.073993
 },
 {
  "slug": "valle-verde-pickleball-club",
  "name": "Valle Verde Pickleball Club",
  "lat": 16.057094,
  "lng": 120.734996
 },
 {
  "slug": "vensand-pickleball-hub",
  "name": "Vensand Pickleball Hub (Rodriguez Rizal)",
  "lat": 20.3962,
  "lng": 121.811025
 },
 {
  "slug": "village-sports-club",
  "name": "Village Sports Club",
  "lat": 15.318915,
  "lng": 120.003138
 },
 {
  "slug": "violago-compound-pickleball",
  "name": "Violago Compound Pickleball",
  "lat": 13.265391,
  "lng": 122.029138
 },
 {
  "slug": "vital-mpact-gym-pickleball-cubao",
  "name": "Vital Mpact Gym Pickleball Cubao",
  "lat": 18.47665,
  "lng": 120.729713
 },
 {
  "slug": "whitewoods-pickleball-club",
  "name": "Whitewoods Pickleball Club",
  "lat": 16.165834,
  "lng": 120.320114
 },
 {
  "slug": "xavier-school-pickleball",
  "name": "Xavier School Pickleball",
  "lat": 14.433881,
  "lng": 122.076257
 },
 {
  "slug": "zone-sports-center",
  "name": "Zone Sports Center",
  "lat": 12.746402,
  "lng": 121.432684
 }
]